{
  "offices": [
    {
      "address": "Jawa Tengah, Indonesia",
      "id": "ungaranbarat",
      "image": "https://lh3.googleusercontent.com/JEaMUfOUq6bxN7jeIN1z2me5-JvlLRkrFJgf_A0GvqtOquU6Tfjg0ecKeR_Ck27L0S1zC2t_4I6nVP6pBdBtSKst7tkJEoC7LyYq",
      "lat": -7.131253,
      "lng": 110.407329,
      "name": "Ungaran Barat",
      "phone": "",
      "region": "asia-pacific"
    },
    {
      "address": "Jawa Tengah, Indonesia",
      "id": "ungarantimur",
      "image": "https://lh3.googleusercontent.com/JEaMUfOUq6bxN7jeIN1z2me5-JvlLRkrFJgf_A0GvqtOquU6Tfjg0ecKeR_Ck27L0S1zC2t_4I6nVP6pBdBtSKst7tkJEoC7LyYq",
      "lat": -6.227664,
      "lng": 106.808471,
      "name": "Ungaran Timur",
      "phone": "",
      "region": "asia-pacific"
    },
    {
      "address": "Jawa Tengah, Indonesia",
      "id": "bergas",
      "image": "https://lh3.googleusercontent.com/JEaMUfOUq6bxN7jeIN1z2me5-JvlLRkrFJgf_A0GvqtOquU6Tfjg0ecKeR_Ck27L0S1zC2t_4I6nVP6pBdBtSKst7tkJEoC7LyYq",
      "lat": -7.199432,
      "lng": 110.4156367,
      "name": "Bergas",
      "phone": "",
      "region": "asia-pacific"
    },
    {
      "address": "Jawa Tengah, Indonesia",
      "id": "pringapus",
      "image": "https://lh3.googleusercontent.com/JEaMUfOUq6bxN7jeIN1z2me5-JvlLRkrFJgf_A0GvqtOquU6Tfjg0ecKeR_Ck27L0S1zC2t_4I6nVP6pBdBtSKst7tkJEoC7LyYq",
      "lat": -7.1991309,
      "lng": 110.4613245,
      "name": "Pringapus",
      "phone": "",
      "region": "asia-pacific"
    },
    {
      "address": "Jawa Tengah, Indonesia",
      "id": "sumowono",
      "image": "https://lh3.googleusercontent.com/JEaMUfOUq6bxN7jeIN1z2me5-JvlLRkrFJgf_A0GvqtOquU6Tfjg0ecKeR_Ck27L0S1zC2t_4I6nVP6pBdBtSKst7tkJEoC7LyYq",
      "lat": -7.2223988,
      "lng": 110.3222667,
      "name": "Sumowono",
      "phone": "",
      "region": "asia-pacific"
    },
    {
      "address": "Jawa Tengah, Indonesia",
      "id": "bandungan",
      "image": "https://lh3.googleusercontent.com/JEaMUfOUq6bxN7jeIN1z2me5-JvlLRkrFJgf_A0GvqtOquU6Tfjg0ecKeR_Ck27L0S1zC2t_4I6nVP6pBdBtSKst7tkJEoC7LyYq",
      "lat": -7.2183227,
      "lng": 110.3747743,
      "name": "Bandungan",
      "phone": "",
      "region": "asia-pacific"
    },
    {
      "address": "Jawa Tengah, Indonesia",
      "id": "bawen",
      "image": "https://lh3.googleusercontent.com/JEaMUfOUq6bxN7jeIN1z2me5-JvlLRkrFJgf_A0GvqtOquU6Tfjg0ecKeR_Ck27L0S1zC2t_4I6nVP6pBdBtSKst7tkJEoC7LyYq",
      "lat": -7.2467065,
      "lng": 110.4317607,
      "name": "Bawen",
      "phone": "",
      "region": "asia-pacific"
    },
    {
      "address": "Jawa Tengah, Indonesia",
      "id": "bringin",
      "image": "https://lh3.googleusercontent.com/JEaMUfOUq6bxN7jeIN1z2me5-JvlLRkrFJgf_A0GvqtOquU6Tfjg0ecKeR_Ck27L0S1zC2t_4I6nVP6pBdBtSKst7tkJEoC7LyYq",
      "lat": -7.2532359,
      "lng": 110.5230974,
      "name": "Bringin",
      "phone": "",
      "region": "asia-pacific"
    },
    {
      "address": "Jawa Tengah, Indonesia",
      "id": "turitang",
      "image": "https://lh3.googleusercontent.com/JEaMUfOUq6bxN7jeIN1z2me5-JvlLRkrFJgf_A0GvqtOquU6Tfjg0ecKeR_Ck27L0S1zC2t_4I6nVP6pBdBtSKst7tkJEoC7LyYq",
      "lat": -6.227664,
      "lng": 106.808471,
      "name": "Turitang",
      "phone": "",
      "region": "asia-pacific"
    },
    {
      "address": "Jawa Tengah, Indonesia",
      "id": "ambarawa",
      "image": "https://lh3.googleusercontent.com/JEaMUfOUq6bxN7jeIN1z2me5-JvlLRkrFJgf_A0GvqtOquU6Tfjg0ecKeR_Ck27L0S1zC2t_4I6nVP6pBdBtSKst7tkJEoC7LyYq",
      "lat": -7.2598228,
      "lng": 110.4045522,
      "name": "Ambarawa",
      "phone": "",
      "region": "asia-pacific"
    },
    {
      "address": "Jawa Tengah, Indonesia",
      "id": "jamilu",
      "image": "https://lh3.googleusercontent.com/JEaMUfOUq6bxN7jeIN1z2me5-JvlLRkrFJgf_A0GvqtOquU6Tfjg0ecKeR_Ck27L0S1zC2t_4I6nVP6pBdBtSKst7tkJEoC7LyYq",
      "lat": -6.227664,
      "lng": 106.808471,
      "name": "Jamilu",
      "phone": "",
      "region": "asia-pacific"
    },
    {
      "address": "Jawa Tengah, Indonesia",
      "id": "banyubiru",
      "image": "https://lh3.googleusercontent.com/JEaMUfOUq6bxN7jeIN1z2me5-JvlLRkrFJgf_A0GvqtOquU6Tfjg0ecKeR_Ck27L0S1zC2t_4I6nVP6pBdBtSKst7tkJEoC7LyYq",
      "lat": -7.2988761,
      "lng": 110.4013536,
      "name": "BanyuBiru",
      "phone": "",
      "region": "asia-pacific"
    },
    {
      "address": "Jawa Tengah, Indonesia",
      "id": "bancak",
      "image": "https://lh3.googleusercontent.com/JEaMUfOUq6bxN7jeIN1z2me5-JvlLRkrFJgf_A0GvqtOquU6Tfjg0ecKeR_Ck27L0S1zC2t_4I6nVP6pBdBtSKst7tkJEoC7LyYq",
      "lat": -7.2473113,
      "lng": 110.5842641,
      "name": "Bancak",
      "phone": "",
      "region": "asia-pacific"
    },
    {
      "address": "Jawa Tengah, Indonesia",
      "id": "pabelan",
      "image": "https://lh3.googleusercontent.com/JEaMUfOUq6bxN7jeIN1z2me5-JvlLRkrFJgf_A0GvqtOquU6Tfjg0ecKeR_Ck27L0S1zC2t_4I6nVP6pBdBtSKst7tkJEoC7LyYq",
      "lat": -7.2898011,
      "lng": 110.5087222,
      "name": "Pabelan",
      "phone": "",
      "region": "asia-pacific"
    },
    {
      "address": "Jawa Tengah, Indonesia",
      "id": "getasan",
      "image": "https://lh3.googleusercontent.com/JEaMUfOUq6bxN7jeIN1z2me5-JvlLRkrFJgf_A0GvqtOquU6Tfjg0ecKeR_Ck27L0S1zC2t_4I6nVP6pBdBtSKst7tkJEoC7LyYq",
      "lat": -7.3759811,
      "lng": 110.4367595,
      "name": "Getasan",
      "phone": "",
      "region": "asia-pacific"
    },
    {
      "address": "Jawa Tengah, Indonesia",
      "id": "tengaran",
      "image": "https://lh3.googleusercontent.com/JEaMUfOUq6bxN7jeIN1z2me5-JvlLRkrFJgf_A0GvqtOquU6Tfjg0ecKeR_Ck27L0S1zC2t_4I6nVP6pBdBtSKst7tkJEoC7LyYq",
      "lat": -7.4201747,
      "lng": 110.518448,
      "name": "Tengaran",
      "phone": "",
      "region": "asia-pacific"
    },
    {
      "address": "Jawa Tengah, Indonesia",
      "id": "suruh",
      "image": "https://lh3.googleusercontent.com/JEaMUfOUq6bxN7jeIN1z2me5-JvlLRkrFJgf_A0GvqtOquU6Tfjg0ecKeR_Ck27L0S1zC2t_4I6nVP6pBdBtSKst7tkJEoC7LyYq",
      "lat": -7.3649436,
      "lng": 110.5695572,
      "name": "Suruh",
      "phone": "",
      "region": "asia-pacific"
    },
    {
      "address": "Jawa Tengah, Indonesia",
      "id": "susukan",
      "image": "https://lh3.googleusercontent.com/JEaMUfOUq6bxN7jeIN1z2me5-JvlLRkrFJgf_A0GvqtOquU6Tfjg0ecKeR_Ck27L0S1zC2t_4I6nVP6pBdBtSKst7tkJEoC7LyYq",
      "lat": -7.4149325,
      "lng": 110.5829084,
      "name": "Susukan",
      "phone": "",
      "region": "asia-pacific"
    },
    {
      "address": "Jawa Tengah, Indonesia",
      "id": "kaliwungu",
      "image": "https://lh3.googleusercontent.com/JEaMUfOUq6bxN7jeIN1z2me5-JvlLRkrFJgf_A0GvqtOquU6Tfjg0ecKeR_Ck27L0S1zC2t_4I6nVP6pBdBtSKst7tkJEoC7LyYq",
      "lat": -7.4623412,
      "lng": 110.624523,
      "name": "Kaliwungu",
      "phone": "",
      "region": "asia-pacific"
    },
    {
      "address": "Jawa Tengah, Indonesia",
      "id": "salatiga",
      "image": "https://lh3.googleusercontent.com/JEaMUfOUq6bxN7jeIN1z2me5-JvlLRkrFJgf_A0GvqtOquU6Tfjg0ecKeR_Ck27L0S1zC2t_4I6nVP6pBdBtSKst7tkJEoC7LyYq",
      "lat": -7.3302642,
      "lng": 110.4995353,
      "name": "Salatiga",
      "phone": "",
      "region": "asia-pacific"
    }
  ]
}